{
"type": "FeatureCollection",
"crs": { "type": "name", "properties": { "name": "urn:ogc:def:crs:OGC:1.3:CRS84" } },
                                                                                
"features": [
{ "type": "Feature", "properties": { "OBJECTID": 1, "NAME": "Stoller MS", "FULLNAME": "Stoller MS", "SCHL_CODE": 346, "GRD_RANGE": "6-8", "ADDRESS": "14141 NW Laidlaw Rd", "CITY": "Beaverton", "CAPACITY": 1249, "PERM_CLRM": 1081, "PORT_CLRM": 168, "SCHL_STATU": "RGLR", "SCHL_TYPE": "MS", "NOTES": null, "ELEM_": 0, "MID_": 346, "INT_": 0, "HIGH_": 0, "WEBSITE": "http:\/\/www.beaverton.k12.or.us\/schools\/stoller", "PHONE": "503 533 1910", "STRT_GRD": 6, "END_GRD": 8, "AREA": 0.000000, "ZIP": "97229" }, "geometry": { "type": "Point", "coordinates": [ -122.82277611601523, 45.557162150796202 ] } },
{ "type": "Feature", "properties": { "OBJECTID": 2, "NAME": "Westview HS", "FULLNAME": "Westview HS", "SCHL_CODE": 460, "GRD_RANGE": "9-12", "ADDRESS": "4200 NW 185th", "CITY": "Portland", "CAPACITY": 2421, "PERM_CLRM": 73, "PORT_CLRM": 16, "SCHL_STATU": "RGLR", "SCHL_TYPE": "HS", "NOTES": null, "ELEM_": 0, "MID_": 0, "INT_": 0, "HIGH_": 460, "WEBSITE": "http:\/\/www.beaverton.k12.or.us\/schools\/westview\/", "PHONE": "503 259 5218", "STRT_GRD": 9, "END_GRD": 12, "AREA": 0.000000, "ZIP": "97229" }, "geometry": { "type": "Point", "coordinates": [ -122.86573739952082, 45.550428523642346 ] } },
{ "type": "Feature", "properties": { "OBJECTID": 3, "NAME": "Rock Creek ES", "FULLNAME": "Rock Creek ES", "SCHL_CODE": 177, "GRD_RANGE": "K-5", "ADDRESS": "4125 NW 185th Ave", "CITY": "Portland", "CAPACITY": 611, "PERM_CLRM": 497, "PORT_CLRM": 114, "SCHL_STATU": "RGLR", "SCHL_TYPE": "ES", "NOTES": null, "ELEM_": 177, "MID_": 0, "INT_": 0, "HIGH_": 0, "WEBSITE": "http:\/\/www.beaverton.k12.or.us\/schools\/rock-creek\/", "PHONE": "503 533 1875", "STRT_GRD": 0, "END_GRD": 5, "AREA": 0.000000, "ZIP": "97229" }, "geometry": { "type": "Point", "coordinates": [ -122.86879569376013, 45.549176608392685 ] } },
{ "type": "Feature", "properties": { "OBJECTID": 4, "NAME": "Findley ES", "FULLNAME": "Findley ES", "SCHL_CODE": 144, "GRD_RANGE": "K-5", "ADDRESS": "4155 NW Saltzman Rd", "CITY": "Portland", "CAPACITY": 855, "PERM_CLRM": 703, "PORT_CLRM": 152, "SCHL_STATU": "RGLR", "SCHL_TYPE": "ES", "NOTES": null, "ELEM_": 144, "MID_": 0, "INT_": 0, "HIGH_": 0, "WEBSITE": "http:\/\/www.beaverton.k12.or.us\/schools\/findley\/", "PHONE": "503 533 1830", "STRT_GRD": 0, "END_GRD": 5, "AREA": 0.000000, "ZIP": "97229" }, "geometry": { "type": "Point", "coordinates": [ -122.81142376451486, 45.549623237495986 ] } },
{ "type": "Feature", "properties": { "OBJECTID": 5, "NAME": "Bethany ES", "FULLNAME": "Bethany ES", "SCHL_CODE": 122, "GRD_RANGE": "K-5", "ADDRESS": "3305 NW 174th Ave", "CITY": "Beaverton", "CAPACITY": 538, "PERM_CLRM": 481, "PORT_CLRM": 57, "SCHL_STATU": "RGLR", "SCHL_TYPE": "ES", "NOTES": null, "ELEM_": 122, "MID_": 0, "INT_": 0, "HIGH_": 0, "WEBSITE": "http:\/\/www.beaverton.k12.or.us\/schools\/bethany", "PHONE": "503 533 1810", "STRT_GRD": 0, "END_GRD": 5, "AREA": 0.000000, "ZIP": "97006" }, "geometry": { "type": "Point", "coordinates": [ -122.85792599662418, 45.543029776675453 ] } },
{ "type": "Feature", "properties": { "OBJECTID": 6, "NAME": "Oak Hills ES", "FULLNAME": "Oak Hills ES", "SCHL_CODE": 171, "GRD_RANGE": "K-5", "ADDRESS": "2625 NW 153rd Ave", "CITY": "Beaverton", "CAPACITY": 615, "PERM_CLRM": 463, "PORT_CLRM": 152, "SCHL_STATU": "RGLR", "SCHL_TYPE": "ES", "NOTES": null, "ELEM_": 171, "MID_": 0, "INT_": 0, "HIGH_": 0, "WEBSITE": "http:\/\/www.beaverton.k12.or.us\/schools\/oak-hills\/", "PHONE": "503 533 1860", "STRT_GRD": 0, "END_GRD": 5, "AREA": 0.000000, "ZIP": "97006" }, "geometry": { "type": "Point", "coordinates": [ -122.83588329987967, 45.538986864095044 ] } },
{ "type": "Feature", "properties": { "OBJECTID": 7, "NAME": "Terra Linda ES", "FULLNAME": "Terra Linda ES", "SCHL_CODE": 185, "GRD_RANGE": "K-5", "ADDRESS": "1998 NW 143rd Ave", "CITY": "Portland", "CAPACITY": 480, "PERM_CLRM": 480, "PORT_CLRM": 0, "SCHL_STATU": "RGLR", "SCHL_TYPE": "ES", "NOTES": null, "ELEM_": 185, "MID_": 0, "INT_": 0, "HIGH_": 0, "WEBSITE": "http:\/\/www.beaverton.k12.or.us\/schools\/terra-linda\/", "PHONE": "503 672 3575", "STRT_GRD": 0, "END_GRD": 5, "AREA": 0.000000, "ZIP": "97229" }, "geometry": { "type": "Point", "coordinates": [ -122.82014036691287, 45.533154150799866 ] } },
{ "type": "Feature", "properties": { "OBJECTID": 8, "NAME": "Five Oaks MS", "FULLNAME": "Five Oaks MS", "SCHL_CODE": 357, "GRD_RANGE": "6-8", "ADDRESS": "1600 NW 173rd Ave", "CITY": "Beaverton", "CAPACITY": 1236, "PERM_CLRM": 1047, "PORT_CLRM": 189, "SCHL_STATU": "RGLR", "SCHL_TYPE": "MS", "NOTES": null, "ELEM_": 0, "MID_": 357, "INT_": 0, "HIGH_": 0, "WEBSITE": "http:\/\/www.beaverton.k12.or.us\/schools\/five-oaks\/", "PHONE": "503 533 1890", "STRT_GRD": 6, "END_GRD": 8, "AREA": 0.000000, "ZIP": "97006" }, "geometry": { "type": "Point", "coordinates": [ -122.85326883008224, 45.530533795899188 ] } },
{ "type": "Feature", "properties": { "OBJECTID": 9, "NAME": "McKinley ES", "FULLNAME": "McKinley ES", "SCHL_CODE": 161, "GRD_RANGE": "K-5", "ADDRESS": "1500 NW 185th Ave", "CITY": "Beaverton", "CAPACITY": 720, "PERM_CLRM": 568, "PORT_CLRM": 152, "SCHL_STATU": "RGLR", "SCHL_TYPE": "ES", "NOTES": null, "ELEM_": 161, "MID_": 0, "INT_": 0, "HIGH_": 0, "WEBSITE": "http:\/\/www.beaverton.k12.or.us\/schools\/mckinley", "PHONE": "503 533 1845", "STRT_GRD": 0, "END_GRD": 5, "AREA": 0.000000, "ZIP": "97006" }, "geometry": { "type": "Point", "coordinates": [ -122.86669519447894, 45.530213777441048 ] } },
{ "type": "Feature", "properties": { "OBJECTID": 10, "NAME": "Health and Sciences School", "FULLNAME": "Health and Sciences School HS", "SCHL_CODE": 472, "GRD_RANGE": "6-12", "ADDRESS": "18640 NW Walker Road", "CITY": "Beaverton", "CAPACITY": 751, "PERM_CLRM": 751, "PORT_CLRM": 0, "SCHL_STATU": "OTHR", "SCHL_TYPE": "OTH", "NOTES": null, "ELEM_": 0, "MID_": 0, "INT_": 0, "HIGH_": 472, "WEBSITE": "http:\/\/www.beaverton.k12.or.us\/schools\/health-and-science\/", "PHONE": "503 725 2213", "STRT_GRD": 9, "END_GRD": 12, "AREA": 0.000000, "ZIP": "97006" }, "geometry": { "type": "Point", "coordinates": [ -122.86979576290196, 45.527091080533566 ] } },
{ "type": "Feature", "properties": { "OBJECTID": 11, "NAME": "Sunset HS", "FULLNAME": "Sunset HS", "SCHL_CODE": 480, "GRD_RANGE": "9-12", "ADDRESS": "13840 NW Cornell Rd", "CITY": "Portland", "CAPACITY": 2203, "PERM_CLRM": 81, "PORT_CLRM": 0, "SCHL_STATU": "RGLR", "SCHL_TYPE": "HS", "NOTES": null, "ELEM_": 0, "MID_": 0, "INT_": 0, "HIGH_": 480, "WEBSITE": "http:\/\/www.beaverton.k12.or.us\/schools\/sunset\/", "PHONE": "503 259 5050", "STRT_GRD": 9, "END_GRD": 12, "AREA": 0.000000, "ZIP": "97229" }, "geometry": { "type": "Point", "coordinates": [ -122.82041100294919, 45.52802726945685 ] } },
{ "type": "Feature", "properties": { "OBJECTID": 12, "NAME": "Cedar Mill ES", "FULLNAME": "Cedar Mill ES", "SCHL_CODE": 131, "GRD_RANGE": "K-5", "ADDRESS": "10265 NW Cornell Rd", "CITY": "Portland", "CAPACITY": 403, "PERM_CLRM": 384, "PORT_CLRM": 19, "SCHL_STATU": "RGLR", "SCHL_TYPE": "ES", "NOTES": null, "ELEM_": 131, "MID_": 0, "INT_": 0, "HIGH_": 0, "WEBSITE": "http:\/\/www.beaverton.k12.or.us\/schools\/cedar-mill", "PHONE": "503 591 4546", "STRT_GRD": 0, "END_GRD": 5, "AREA": 0.000000, "ZIP": "97229" }, "geometry": { "type": "Point", "coordinates": [ -122.78293309665186, 45.526935789424179 ] } },
{ "type": "Feature", "properties": { "OBJECTID": 13, "NAME": "Elmonica ES", "FULLNAME": "Elmonica ES", "SCHL_CODE": 143, "GRD_RANGE": "K-5", "ADDRESS": "16950 SW Lisa St", "CITY": "Beaverton", "CAPACITY": 637, "PERM_CLRM": 466, "PORT_CLRM": 171, "SCHL_STATU": "RGLR", "SCHL_TYPE": "ES", "NOTES": null, "ELEM_": 143, "MID_": 0, "INT_": 0, "HIGH_": 0, "WEBSITE": "http:\/\/www.beaverton.k12.or.us\/schools\/elmonica\/", "PHONE": "503 533 1815", "STRT_GRD": 0, "END_GRD": 5, "AREA": 0.000000, "ZIP": "97006" }, "geometry": { "type": "Point", "coordinates": [ -122.85149876187043, 45.51560445992677 ] } },
{ "type": "Feature", "properties": { "OBJECTID": 14, "NAME": "Meadow Park MS", "FULLNAME": "Meadow Park MS", "SCHL_CODE": 341, "GRD_RANGE": "6-8", "ADDRESS": "14100 SW Downing St", "CITY": "Beaverton", "CAPACITY": 932, "PERM_CLRM": 848, "PORT_CLRM": 84, "SCHL_STATU": "RGLR", "SCHL_TYPE": "MS", "NOTES": null, "ELEM_": 0, "MID_": 341, "INT_": 0, "HIGH_": 0, "WEBSITE": "http:\/\/www.beaverton.k12.or.us\/schools\/meadow-park\/", "PHONE": "503 672 3660", "STRT_GRD": 6, "END_GRD": 8, "AREA": 0.000000, "ZIP": "97006" }, "geometry": { "type": "Point", "coordinates": [ -122.82355056781263, 45.515176416071995 ] } },
{ "type": "Feature", "properties": { "OBJECTID": 15, "NAME": "West Tualatin View ES", "FULLNAME": "West Tualatin View ES", "SCHL_CODE": 191, "GRD_RANGE": "K-5", "ADDRESS": "8800 SW Leahy Rd", "CITY": "Portland", "CAPACITY": 398, "PERM_CLRM": 398, "PORT_CLRM": 0, "SCHL_STATU": "RGLR", "SCHL_TYPE": "ES", "NOTES": null, "ELEM_": 191, "MID_": 0, "INT_": 0, "HIGH_": 0, "WEBSITE": "http:\/\/www.beaverton.k12.or.us\/schools\/west-tv\/", "PHONE": "503 259 7830", "STRT_GRD": 0, "END_GRD": 5, "AREA": 0.000000, "ZIP": "97225" }, "geometry": { "type": "Point", "coordinates": [ -122.7667235066139, 45.515248292756382 ] } },
{ "type": "Feature", "properties": { "OBJECTID": 16, "NAME": "Merlo Station HS", "FULLNAME": "Merlo Station HS", "SCHL_CODE": 482, "GRD_RANGE": "9-12", "ADDRESS": "1841 SW Merlo Dr", "CITY": "Beaverton", "CAPACITY": 1, "PERM_CLRM": 0, "PORT_CLRM": 0, "SCHL_STATU": "OTHR", "SCHL_TYPE": "OTH", "NOTES": null, "ELEM_": 0, "MID_": 0, "INT_": 0, "HIGH_": 482, "WEBSITE": "http:\/\/www.beaverton.k12.or.us\/schools\/merlo-station\/", "PHONE": "503 259 5575", "STRT_GRD": 9, "END_GRD": 12, "AREA": 0.000000, "ZIP": "97003" }, "geometry": { "type": "Point", "coordinates": [ -122.84817340187267, 45.506146699799288 ] } },
{ "type": "Feature", "properties": { "OBJECTID": 17, "NAME": "Barnes ES", "FULLNAME": "Barnes ES", "SCHL_CODE": 116, "GRD_RANGE": "K-5", "ADDRESS": "13730 SW Walker Rd", "CITY": "Beaverton", "CAPACITY": 808, "PERM_CLRM": 732, "PORT_CLRM": 76, "SCHL_STATU": "RGLR", "SCHL_TYPE": "ES", "NOTES": null, "ELEM_": 116, "MID_": 0, "INT_": 0, "HIGH_": 0, "WEBSITE": "http:\/\/www.beaverton.k12.or.us\/schools\/barnes\/", "PHONE": "503 672 3500", "STRT_GRD": 0, "END_GRD": 5, "AREA": 0.000000, "ZIP": "97005" }, "geometry": { "type": "Point", "coordinates": [ -122.8183254443078, 45.506303703738816 ] } },
{ "type": "Feature", "properties": { "OBJECTID": 18, "NAME": "Cedar Park MS", "FULLNAME": "Cedar Park MS", "SCHL_CODE": 321, "GRD_RANGE": "6-8", "ADDRESS": "11100 SW Parkway St", "CITY": "Portland", "CAPACITY": 998, "PERM_CLRM": 872, "PORT_CLRM": 126, "SCHL_STATU": "RGLR", "SCHL_TYPE": "MS", "NOTES": null, "ELEM_": 0, "MID_": 321, "INT_": 0, "HIGH_": 0, "WEBSITE": "http:\/\/www.beaverton.k12.or.us\/schools\/cedar-park", "PHONE": "503 672 3620", "STRT_GRD": 6, "END_GRD": 8, "AREA": 0.000000, "ZIP": "97225" }, "geometry": { "type": "Point", "coordinates": [ -122.79101311073111, 45.506081884108902 ] } },
{ "type": "Feature", "properties": { "OBJECTID": 19, "NAME": "Beaver Acres ES", "FULLNAME": "Beaver Acres ES", "SCHL_CODE": 119, "GRD_RANGE": "K-5", "ADDRESS": "2125 SW 170th Ave", "CITY": "Beaverton", "CAPACITY": 902, "PERM_CLRM": 750, "PORT_CLRM": 152, "SCHL_STATU": "RGLR", "SCHL_TYPE": "ES", "NOTES": null, "ELEM_": 119, "MID_": 0, "INT_": 0, "HIGH_": 0, "WEBSITE": "http:\/\/www.beaverton.k12.or.us\/schools\/beaver-acres\/", "PHONE": "503 259 3815", "STRT_GRD": 0, "END_GRD": 5, "AREA": 0.000000, "ZIP": "97003" }, "geometry": { "type": "Point", "coordinates": [ -122.85278249203785, 45.504455804249112 ] } },
{ "type": "Feature", "properties": { "OBJECTID": 20, "NAME": "Ridgewood ES", "FULLNAME": "Ridgewood ES", "SCHL_CODE": 179, "GRD_RANGE": "K-5", "ADDRESS": "10100 SW Inglewood St", "CITY": "Portland", "CAPACITY": 499, "PERM_CLRM": 461, "PORT_CLRM": 38, "SCHL_STATU": "RGLR", "SCHL_TYPE": "ES", "NOTES": null, "ELEM_": 179, "MID_": 0, "INT_": 0, "HIGH_": 0, "WEBSITE": "http:\/\/www.beaverton.k12.or.us\/schools\/ridgewood\/", "PHONE": "503 259 7535", "STRT_GRD": 0, "END_GRD": 5, "AREA": 0.000000, "ZIP": "97225" }, "geometry": { "type": "Point", "coordinates": [ -122.78055172399235, 45.502490949410962 ] } },
{ "type": "Feature", "properties": { "OBJECTID": 21, "NAME": "William Walker ES", "FULLNAME": "William Walker ES", "SCHL_CODE": 194, "GRD_RANGE": "K-5", "ADDRESS": "11940 SW Lynnfield Ln", "CITY": "Portland", "CAPACITY": 590, "PERM_CLRM": 457, "PORT_CLRM": 133, "SCHL_STATU": "RGLR", "SCHL_TYPE": "ES", "NOTES": null, "ELEM_": 194, "MID_": 0, "INT_": 0, "HIGH_": 0, "WEBSITE": "http:\/\/www.beaverton.k12.or.us\/schools\/william-walker\/", "PHONE": "503 672 3605", "STRT_GRD": 0, "END_GRD": 5, "AREA": 0.000000, "ZIP": "97225" }, "geometry": { "type": "Point", "coordinates": [ -122.80005984138138, 45.501592809595685 ] } },
{ "type": "Feature", "properties": { "OBJECTID": 22, "NAME": "Raleigh Park ES", "FULLNAME": "Raleigh Park ES", "SCHL_CODE": 176, "GRD_RANGE": "K-5", "ADDRESS": "3670 SW 78th Ave", "CITY": "Portland", "CAPACITY": 492, "PERM_CLRM": 416, "PORT_CLRM": 76, "SCHL_STATU": "RGLR", "SCHL_TYPE": "ES", "NOTES": null, "ELEM_": 176, "MID_": 0, "INT_": 0, "HIGH_": 0, "WEBSITE": "http:\/\/www.beaverton.k12.or.us\/schools\/raleigh-park\/", "PHONE": "503 259 7435", "STRT_GRD": 0, "END_GRD": 5, "AREA": 0.000000, "ZIP": "97225" }, "geometry": { "type": "Point", "coordinates": [ -122.75563001733092, 45.493337963372241 ] } },
{ "type": "Feature", "properties": { "OBJECTID": 23, "NAME": "International School of Beaverton", "FULLNAME": "International School of Beaverton HS", "SCHL_CODE": 471, "GRD_RANGE": "6-12", "ADDRESS": "17771 SW Blanton St", "CITY": "Beaverton", "CAPACITY": 806, "PERM_CLRM": 530, "PORT_CLRM": 276, "SCHL_STATU": "OTHR", "SCHL_TYPE": "OTH", "NOTES": null, "ELEM_": 0, "MID_": 0, "INT_": 0, "HIGH_": 471, "WEBSITE": "http:\/\/www.beaverton.k12.or.us\/schools\/isb", "PHONE": "503 259 3800", "STRT_GRD": 9, "END_GRD": 12, "AREA": 0.000000, "ZIP": "97078" }, "geometry": { "type": "Point", "coordinates": [ -122.8599893928457, 45.490154772090342 ] } },
{ "type": "Feature", "properties": { "OBJECTID": 24, "NAME": "Kinnaman ES", "FULLNAME": "Kinnaman ES", "SCHL_CODE": 186, "GRD_RANGE": "K-5", "ADDRESS": "4205 SW 193rd Ave", "CITY": "Beaverton", "CAPACITY": 819, "PERM_CLRM": 781, "PORT_CLRM": 38, "SCHL_STATU": "RGLR", "SCHL_TYPE": "ES", "NOTES": null, "ELEM_": 186, "MID_": 0, "INT_": 0, "HIGH_": 0, "WEBSITE": "http:\/\/www.beaverton.k12.or.us\/schools\/kinnaman\/", "PHONE": "503 259 3875", "STRT_GRD": 0, "END_GRD": 5, "AREA": 0.000000, "ZIP": "97078" }, "geometry": { "type": "Point", "coordinates": [ -122.87630439474272, 45.489557953039274 ] } },
{ "type": "Feature", "properties": { "OBJECTID": 25, "NAME": "Aloha HS", "FULLNAME": "Aloha HS", "SCHL_CODE": 420, "GRD_RANGE": "9-12", "ADDRESS": "18550 SW Kinnaman Road", "CITY": "Aloha", "CAPACITY": 2176, "PERM_CLRM": 85, "PORT_CLRM": 5, "SCHL_STATU": "RGLR", "SCHL_TYPE": "HS", "NOTES": null, "ELEM_": 0, "MID_": 0, "INT_": 0, "HIGH_": 420, "WEBSITE": "http:\/\/www.beaverton.k12.or.us\/schools\/aloha\/", "PHONE": "503 259 4700", "STRT_GRD": 9, "END_GRD": 12, "AREA": 0.000000, "ZIP": "97078" }, "geometry": { "type": "Point", "coordinates": [ -122.86871573642189, 45.484763441327786 ] } },
{ "type": "Feature", "properties": { "OBJECTID": 26, "NAME": "Beaverton HS", "FULLNAME": "Beaverton HS", "SCHL_CODE": 450, "GRD_RANGE": "9-12", "ADDRESS": "13000 SW Second St", "CITY": "Beaverton", "CAPACITY": 2122, "PERM_CLRM": 78, "PORT_CLRM": 0, "SCHL_STATU": "RGLR", "SCHL_TYPE": "HS", "NOTES": null, "ELEM_": 0, "MID_": 0, "INT_": 0, "HIGH_": 450, "WEBSITE": "http:\/\/www3.beaverton.k12.or.us\/beaverton\/", "PHONE": "503 259 5000", "STRT_GRD": 9, "END_GRD": 12, "AREA": 0.000000, "ZIP": "97005" }, "geometry": { "type": "Point", "coordinates": [ -122.81094878597392, 45.485551488685033 ] } },
{ "type": "Feature", "properties": { "OBJECTID": 27, "NAME": "Raleigh Hills ES", "FULLNAME": "Raleigh Hills ES", "SCHL_CODE": 174, "GRD_RANGE": "K-8", "ADDRESS": "5225 SW Scholls Ferry Rd", "CITY": "Portland", "CAPACITY": 610, "PERM_CLRM": 496, "PORT_CLRM": 114, "SCHL_STATU": "RGLR", "SCHL_TYPE": "ES", "NOTES": null, "ELEM_": 174, "MID_": 174, "INT_": 0, "HIGH_": 0, "WEBSITE": "http:\/\/www.beaverton.k12.or.us\/schools\/Raleigh-Hills", "PHONE": "503 259 7385", "STRT_GRD": 0, "END_GRD": 8, "AREA": 0.000000, "ZIP": "97225" }, "geometry": { "type": "Point", "coordinates": [ -122.75826134436579, 45.48239510388261 ] } },
{ "type": "Feature", "properties": { "OBJECTID": 28, "NAME": "Mountain View MS", "FULLNAME": "Mountain View MS", "SCHL_CODE": 351, "GRD_RANGE": "6-8", "ADDRESS": "17500 SW Farmington Rd", "CITY": "Beaverton", "CAPACITY": 1074, "PERM_CLRM": 990, "PORT_CLRM": 84, "SCHL_STATU": "RGLR", "SCHL_TYPE": "MS", "NOTES": null, "ELEM_": 0, "MID_": 351, "INT_": 0, "HIGH_": 0, "WEBSITE": "http:\/\/www.beaverton.k12.or.us\/schools\/mountain-view\/", "PHONE": "503 259 3890", "STRT_GRD": 6, "END_GRD": 8, "AREA": 0.000000, "ZIP": "97007" }, "geometry": { "type": "Point", "coordinates": [ -122.85615975164848, 45.479509510431519 ] } },
{ "type": "Feature", "properties": { "OBJECTID": 29, "NAME": "Chehalem ES", "FULLNAME": "Chehalem ES", "SCHL_CODE": 137, "GRD_RANGE": "K-5", "ADDRESS": "15555 SW Davis Rd", "CITY": "Beaverton", "CAPACITY": 556, "PERM_CLRM": 480, "PORT_CLRM": 76, "SCHL_STATU": "RGLR", "SCHL_TYPE": "ES", "NOTES": null, "ELEM_": 137, "MID_": 0, "INT_": 0, "HIGH_": 0, "WEBSITE": "http:\/\/www.beaverton.k12.or.us\/schools\/chehalem", "PHONE": "503 672 3515", "STRT_GRD": 0, "END_GRD": 5, "AREA": 0.000000, "ZIP": "97007" }, "geometry": { "type": "Point", "coordinates": [ -122.83730834049416, 45.475837181753548 ] } },
{ "type": "Feature", "properties": { "OBJECTID": 30, "NAME": "Montclair ES", "FULLNAME": "Montclair ES", "SCHL_CODE": 167, "GRD_RANGE": "K-5", "ADDRESS": "7250 SW Vermont St", "CITY": "Portland", "CAPACITY": 424, "PERM_CLRM": 367, "PORT_CLRM": 57, "SCHL_STATU": "RGLR", "SCHL_TYPE": "ES", "NOTES": null, "ELEM_": 167, "MID_": 0, "INT_": 0, "HIGH_": 0, "WEBSITE": "http:\/\/www.beaverton.k12.or.us\/schools\/montclair", "PHONE": "503 259 7685", "STRT_GRD": 0, "END_GRD": 5, "AREA": 0.000000, "ZIP": "97223" }, "geometry": { "type": "Point", "coordinates": [ -122.75198421747653, 45.475867140174415 ] } },
{ "type": "Feature", "properties": { "OBJECTID": 31, "NAME": "Fir Grove ES", "FULLNAME": "Fir Grove ES", "SCHL_CODE": 146, "GRD_RANGE": "K-5", "ADDRESS": "6300 SW Wilson Ave", "CITY": "Beaverton", "CAPACITY": 593, "PERM_CLRM": 555, "PORT_CLRM": 38, "SCHL_STATU": "RGLR", "SCHL_TYPE": "ES", "NOTES": null, "ELEM_": 146, "MID_": 0, "INT_": 0, "HIGH_": 0, "WEBSITE": "http:\/\/www.beaverton.k12.or.us\/schools\/fir-grove", "PHONE": "503 672 3530", "STRT_GRD": 0, "END_GRD": 5, "AREA": 0.000000, "ZIP": "97008" }, "geometry": { "type": "Point", "coordinates": [ -122.8182269411793, 45.473825272460182 ] } },
{ "type": "Feature", "properties": { "OBJECTID": 32, "NAME": "Hazeldale ES", "FULLNAME": "Hazeldale ES", "SCHL_CODE": 152, "GRD_RANGE": "K-5", "ADDRESS": "20080 SW Farmington Rd", "CITY": "Aloha", "CAPACITY": 572, "PERM_CLRM": 477, "PORT_CLRM": 95, "SCHL_STATU": "RGLR", "SCHL_TYPE": "ES", "NOTES": null, "ELEM_": 152, "MID_": 0, "INT_": 0, "HIGH_": 0, "WEBSITE": "http:\/\/www.beaverton.k12.or.us\/schools\/hazeldale\/", "PHONE": "503 259 3860", "STRT_GRD": 0, "END_GRD": 5, "AREA": 0.000000, "ZIP": "97007" }, "geometry": { "type": "Point", "coordinates": [ -122.88330498308291, 45.469289130036287 ] } },
{ "type": "Feature", "properties": { "OBJECTID": 33, "NAME": "Highland Park MS", "FULLNAME": "Highland Park MS", "SCHL_CODE": 331, "GRD_RANGE": "6-8", "ADDRESS": "7000 SW Wilson Ave", "CITY": "Beaverton", "CAPACITY": 997, "PERM_CLRM": 871, "PORT_CLRM": 126, "SCHL_STATU": "RGLR", "SCHL_TYPE": "MS", "NOTES": null, "ELEM_": 0, "MID_": 331, "INT_": 0, "HIGH_": 0, "WEBSITE": "http:\/\/www.beaverton.k12.or.us\/schools\/highland-park\/", "PHONE": "503 672 3640", "STRT_GRD": 6, "END_GRD": 8, "AREA": 0.000000, "ZIP": "97008" }, "geometry": { "type": "Point", "coordinates": [ -122.81873448014396, 45.468820884149793 ] } },
{ "type": "Feature", "properties": { "OBJECTID": 34, "NAME": "Vose ES", "FULLNAME": "Vose ES", "SCHL_CODE": 188, "GRD_RANGE": "K-5", "ADDRESS": "11350 SW Denny Rd", "CITY": "Beaverton", "CAPACITY": 670, "PERM_CLRM": 499, "PORT_CLRM": 171, "SCHL_STATU": "RGLR", "SCHL_TYPE": "ES", "NOTES": null, "ELEM_": 188, "MID_": 0, "INT_": 0, "HIGH_": 0, "WEBSITE": "http:\/\/www.beaverton.k12.or.us\/schools\/vose\/", "PHONE": "503 672 3590", "STRT_GRD": 0, "END_GRD": 5, "AREA": 0.000000, "ZIP": "97008" }, "geometry": { "type": "Point", "coordinates": [ -122.7937653595599, 45.46862986981079 ] } },
{ "type": "Feature", "properties": { "OBJECTID": 35, "NAME": "Errol Hassell ES", "FULLNAME": "Errol Hassell ES", "SCHL_CODE": 151, "GRD_RANGE": "K-5", "ADDRESS": "18100 SW Bany Rd", "CITY": "Beaverton", "CAPACITY": 558, "PERM_CLRM": 558, "PORT_CLRM": 0, "SCHL_STATU": "RGLR", "SCHL_TYPE": "ES", "NOTES": null, "ELEM_": 151, "MID_": 0, "INT_": 0, "HIGH_": 0, "WEBSITE": "http:\/\/www.beaverton.k12.or.us\/schools\/errol-hassell\/Pages\/home.aspx", "PHONE": "503 259 3845", "STRT_GRD": 0, "END_GRD": 5, "AREA": 0.000000, "ZIP": "97007" }, "geometry": { "type": "Point", "coordinates": [ -122.86329195940219, 45.46632851403281 ] } },
{ "type": "Feature", "properties": { "OBJECTID": 36, "NAME": "Cooper Mountain ES", "FULLNAME": "Cooper Mountain ES", "SCHL_CODE": 141, "GRD_RANGE": "K-5", "ADDRESS": "7670 SW 170th Ave", "CITY": "Beaverton", "CAPACITY": 588, "PERM_CLRM": 512, "PORT_CLRM": 76, "SCHL_STATU": "RGLR", "SCHL_TYPE": "ES", "NOTES": null, "ELEM_": 141, "MID_": 0, "INT_": 0, "HIGH_": 0, "WEBSITE": "http:\/\/www.beaverton.k12.or.us\/schools\/cooper-mountain\/", "PHONE": "503 259 3830", "STRT_GRD": 0, "END_GRD": 5, "AREA": 0.000000, "ZIP": "97007" }, "geometry": { "type": "Point", "coordinates": [ -122.85066732657475, 45.464549822483875 ] } },
{ "type": "Feature", "properties": { "OBJECTID": 37, "NAME": "McKay ES", "FULLNAME": "McKay ES", "SCHL_CODE": 157, "GRD_RANGE": "K-5", "ADDRESS": "7485 SW Scholls Ferry Rd", "CITY": "Beaverton", "CAPACITY": 415, "PERM_CLRM": 415, "PORT_CLRM": 0, "SCHL_STATU": "RGLR", "SCHL_TYPE": "ES", "NOTES": null, "ELEM_": 157, "MID_": 0, "INT_": 0, "HIGH_": 0, "WEBSITE": "http:\/\/www.beaverton.k12.or.us\/schools\/mckay\/", "PHONE": "503 672 3545", "STRT_GRD": 0, "END_GRD": 5, "AREA": 0.000000, "ZIP": "97008" }, "geometry": { "type": "Point", "coordinates": [ -122.77866063044699, 45.465614660717158 ] } },
{ "type": "Feature", "properties": { "OBJECTID": 38, "NAME": "Whitford MS", "FULLNAME": "Whitford MS", "SCHL_CODE": 361, "GRD_RANGE": "6-8", "ADDRESS": "7935 SW Scholls Ferry Rd", "CITY": "Beaverton", "CAPACITY": 865, "PERM_CLRM": 865, "PORT_CLRM": 0, "SCHL_STATU": "RGLR", "SCHL_TYPE": "MS", "NOTES": null, "ELEM_": 0, "MID_": 361, "INT_": 0, "HIGH_": 0, "WEBSITE": "http:\/\/www.beaverton.k12.or.us\/schools\/whitford", "PHONE": "503 591 8000", "STRT_GRD": 6, "END_GRD": 8, "AREA": 0.000000, "ZIP": "97005" }, "geometry": { "type": "Point", "coordinates": [ -122.78196477795255, 45.463132147728324 ] } },
{ "type": "Feature", "properties": { "OBJECTID": 39, "NAME": "Sexton Mountain ES", "FULLNAME": "Sexton Mountain ES", "SCHL_CODE": 182, "GRD_RANGE": "K-5", "ADDRESS": "15645 SW Sexton Mtn Dr", "CITY": "Beaverton", "CAPACITY": 751, "PERM_CLRM": 637, "PORT_CLRM": 114, "SCHL_STATU": "RGLR", "SCHL_TYPE": "ES", "NOTES": null, "ELEM_": 182, "MID_": 0, "INT_": 0, "HIGH_": 0, "WEBSITE": "http:\/\/www.beaverton.k12.or.us\/schools\/sexton-mountain", "PHONE": "503 672 3560", "STRT_GRD": 0, "END_GRD": 5, "AREA": 0.000000, "ZIP": "97007" }, "geometry": { "type": "Point", "coordinates": [ -122.837402971309, 45.459274692228959 ] } },
{ "type": "Feature", "properties": { "OBJECTID": 40, "NAME": "Hiteon ES", "FULLNAME": "Hiteon ES", "SCHL_CODE": 165, "GRD_RANGE": "K-5", "ADDRESS": "13800 SW Brockman St", "CITY": "Beaverton", "CAPACITY": 736, "PERM_CLRM": 736, "PORT_CLRM": 0, "SCHL_STATU": "RGLR", "SCHL_TYPE": "ES", "NOTES": null, "ELEM_": 165, "MID_": 0, "INT_": 0, "HIGH_": 0, "WEBSITE": "http:\/\/www.beaverton.k12.or.us\/schools\/hiteon\/", "PHONE": "503 524 1315", "STRT_GRD": 0, "END_GRD": 5, "AREA": 0.000000, "ZIP": "97008" }, "geometry": { "type": "Point", "coordinates": [ -122.81927749136406, 45.453938068166835 ] } },
{ "type": "Feature", "properties": { "OBJECTID": 41, "NAME": "Greenway ES", "FULLNAME": "Greenway ES", "SCHL_CODE": 134, "GRD_RANGE": "K-5", "ADDRESS": "9150 SW Downing Dr", "CITY": "Beaverton", "CAPACITY": 523, "PERM_CLRM": 523, "PORT_CLRM": 0, "SCHL_STATU": "RGLR", "SCHL_TYPE": "ES", "NOTES": null, "ELEM_": 134, "MID_": 0, "INT_": 0, "HIGH_": 0, "WEBSITE": "http:\/\/www.beaverton.k12.or.us\/schools\/greenway\/", "PHONE": "503 524 1300", "STRT_GRD": 0, "END_GRD": 5, "AREA": 0.000000, "ZIP": "97008" }, "geometry": { "type": "Point", "coordinates": [ -122.80197404757631, 45.453706312629834 ] } },
{ "type": "Feature", "properties": { "OBJECTID": 42, "NAME": "Southridge HS", "FULLNAME": "Southridge HS", "SCHL_CODE": 430, "GRD_RANGE": "9-12", "ADDRESS": "9625 SW 125th Ave", "CITY": "Beaverton", "CAPACITY": 1850, "PERM_CLRM": 68, "PORT_CLRM": 0, "SCHL_STATU": "RGLR", "SCHL_TYPE": "HS", "NOTES": null, "ELEM_": 0, "MID_": 0, "INT_": 0, "HIGH_": 430, "WEBSITE": "http:\/\/www.beaverton.k12.or.us\/schools\/southridge", "PHONE": "503 259 5400", "STRT_GRD": 9, "END_GRD": 12, "AREA": 0.000000, "ZIP": "97008" }, "geometry": { "type": "Point", "coordinates": [ -122.80798871749492, 45.450147232084667 ] } },
{ "type": "Feature", "properties": { "OBJECTID": 43, "NAME": "Conestoga MS", "FULLNAME": "Conestoga MS", "SCHL_CODE": 326, "GRD_RANGE": "6-8", "ADDRESS": "12250 SW Conestoga Dr", "CITY": "Beaverton", "CAPACITY": 1085, "PERM_CLRM": 959, "PORT_CLRM": 126, "SCHL_STATU": "RGLR", "SCHL_TYPE": "MS", "NOTES": null, "ELEM_": 0, "MID_": 326, "INT_": 0, "HIGH_": 0, "WEBSITE": "http:\/\/www.beaverton.k12.or.us\/schools\/conestoga\/", "PHONE": "503 524 1345", "STRT_GRD": 6, "END_GRD": 8, "AREA": 0.000000, "ZIP": "97008" }, "geometry": { "type": "Point", "coordinates": [ -122.80280462132185, 45.446685473900445 ] } },
{ "type": "Feature", "properties": { "OBJECTID": 44, "NAME": "Nancy Ryles ES", "FULLNAME": "Nancy Ryles ES", "SCHL_CODE": 169, "GRD_RANGE": "K-5", "ADDRESS": "10250 SW Cormorant Dr", "CITY": "Beaverton", "CAPACITY": 731, "PERM_CLRM": 693, "PORT_CLRM": 38, "SCHL_STATU": "RGLR", "SCHL_TYPE": "ES", "NOTES": null, "ELEM_": 169, "MID_": 0, "INT_": 0, "HIGH_": 0, "WEBSITE": "http:\/\/www.beaverton.k12.or.us\/schools\/nancy-ryles\/", "PHONE": "503 524 1330", "STRT_GRD": 0, "END_GRD": 5, "AREA": 0.000000, "ZIP": "97007" }, "geometry": { "type": "Point", "coordinates": [ -122.84347396272064, 45.445138711350324 ] } },
{ "type": "Feature", "properties": { "OBJECTID": 45, "NAME": "Scholls Heights ES", "FULLNAME": "Scholls Heights ES", "SCHL_CODE": 164, "GRD_RANGE": "K-5", "ADDRESS": "16400 SW Loon Dr", "CITY": "Beaverton", "CAPACITY": 738, "PERM_CLRM": 662, "PORT_CLRM": 76, "SCHL_STATU": "RGLR", "SCHL_TYPE": "ES", "NOTES": null, "ELEM_": 164, "MID_": 0, "INT_": 0, "HIGH_": 0, "WEBSITE": "http:\/\/www.beaverton.k12.or.us\/schools\/scholls-heights", "PHONE": "503 524 1365", "STRT_GRD": 0, "END_GRD": 5, "AREA": 0.000000, "ZIP": "97007" }, "geometry": { "type": "Point", "coordinates": [ -122.84485315589436, 45.430579125015718 ] } },
{ "type": "Feature", "properties": { "OBJECTID": 46, "NAME": "Jacob Wismer ES", "FULLNAME": "Jacob Wismer ES", "SCHL_CODE": 127, "GRD_RANGE": "K-5", "ADDRESS": "5477 NW Skycrest Pkwy", "CITY": "Portland", "CAPACITY": 749, "PERM_CLRM": 711, "PORT_CLRM": 38, "SCHL_STATU": "RGLR", "SCHL_TYPE": "ES", "NOTES": null, "ELEM_": 127, "MID_": 0, "INT_": 0, "HIGH_": 0, "WEBSITE": "http:\/\/www.beaverton.k12.or.us\/schools\/Jacob-Wismer", "PHONE": "503 533 1950", "STRT_GRD": 0, "END_GRD": 5, "AREA": 0.000000, "ZIP": "97229" }, "geometry": { "type": "Point", "coordinates": [ -122.82324502580494, 45.559772580958196 ] } },
{ "type": "Feature", "properties": { "OBJECTID": 47, "NAME": "Aloha-Huber Park K8", "FULLNAME": "Aloha Huber Park K8", "SCHL_CODE": 113, "GRD_RANGE": "K-8", "ADDRESS": "5000 SW 173rd Ave", "CITY": "Beaverton", "CAPACITY": 1042, "PERM_CLRM": 1042, "PORT_CLRM": 0, "SCHL_STATU": "RGLR", "SCHL_TYPE": "ES", "NOTES": null, "ELEM_": 113, "MID_": 113, "INT_": 0, "HIGH_": 0, "WEBSITE": "http:\/\/www.beaverton.k12.or.us\/schools\/aloha-park\/", "PHONE": "503 259 6487", "STRT_GRD": 0, "END_GRD": 8, "AREA": 0.000000, "ZIP": "97078" }, "geometry": { "type": "Point", "coordinates": [ -122.85206587056274, 45.483202833518042 ] } },
{ "type": "Feature", "properties": { "OBJECTID": 48, "NAME": "Bonny Slope ES", "FULLNAME": "Bonny Slope ES", "SCHL_CODE": 154, "GRD_RANGE": "K-5", "ADDRESS": "11775 NW McDaniel Rd", "CITY": "Portland", "CAPACITY": 777, "PERM_CLRM": 777, "PORT_CLRM": 0, "SCHL_STATU": "RGLR", "SCHL_TYPE": "ES", "NOTES": null, "ELEM_": 154, "MID_": 0, "INT_": 0, "HIGH_": 0, "WEBSITE": "http:\/\/www.beaverton.k12.or.us\/schools\/bonny-slope\/", "PHONE": "503 591 4115", "STRT_GRD": 0, "END_GRD": 5, "AREA": 0.000000, "ZIP": "97229" }, "geometry": { "type": "Point", "coordinates": [ -122.79658132976185, 45.539734724176768 ] } },
{ "type": "Feature", "properties": { "OBJECTID": 49, "NAME": "Springville K8", "FULLNAME": "Springville K8", "SCHL_CODE": 124, "GRD_RANGE": "K-8", "ADDRESS": "6655 NW Joss Rd", "CITY": "Portland", "CAPACITY": 912, "PERM_CLRM": 836, "PORT_CLRM": 76, "SCHL_STATU": "RGLR", "SCHL_TYPE": "ES", "NOTES": null, "ELEM_": 124, "MID_": 124, "INT_": 0, "HIGH_": 0, "WEBSITE": "http:\/\/www.beaverton.k12.or.us\/schools\/springville\/", "PHONE": "503 591 4178", "STRT_GRD": 0, "END_GRD": 8, "AREA": 0.000000, "ZIP": "97229" }, "geometry": { "type": "Point", "coordinates": [ -122.85083751551707, 45.568195315451717 ] } },
{ "type": "Feature", "properties": { "OBJECTID": 50, "NAME": "Arts and Communication Magnet Academy", "FULLNAME": "Arts and Communication Magnet Academy HS", "SCHL_CODE": 423, "GRD_RANGE": "6-12", "ADDRESS": "11375 SW Center St", "CITY": "Beaverton", "CAPACITY": 514, "PERM_CLRM": 330, "PORT_CLRM": 184, "SCHL_STATU": "OTHR", "SCHL_TYPE": "OTH", "NOTES": null, "ELEM_": 0, "MID_": 0, "INT_": 0, "HIGH_": 423, "WEBSITE": "http:\/\/www.beaverton.k12.or.us\/schools\/acma\/", "PHONE": "503 672 3700", "STRT_GRD": 9, "END_GRD": 12, "AREA": 0.000000, "ZIP": "97005" }, "geometry": { "type": "Point", "coordinates": [ -122.79395279349465, 45.494281646495494 ] } },
{ "type": "Feature", "properties": { "OBJECTID": 51, "NAME": "School of Science and Technology", "FULLNAME": "School of Science and Technology", "SCHL_CODE": 453, "GRD_RANGE": "9-12", "ADDRESS": "1841 SW Merlo Dr", "CITY": "Beaverton", "CAPACITY": 1, "PERM_CLRM": 0, "PORT_CLRM": 0, "SCHL_STATU": "OTHR", "SCHL_TYPE": "OTH", "NOTES": null, "ELEM_": 0, "MID_": 0, "INT_": 0, "HIGH_": 453, "WEBSITE": "http:\/\/www.beaverton.k12.or.us\/schools\/merlo-station-sst\/", "PHONE": "503 259 5575", "STRT_GRD": 9, "END_GRD": 12, "AREA": 0.000000, "ZIP": "97003" }, "geometry": { "type": "Point", "coordinates": [ -122.84817340187267, 45.506146699799288 ] } },
{ "type": "Feature", "properties": { "OBJECTID": 52, "NAME": "Community HS", "FULLNAME": "Community HS", "SCHL_CODE": 422, "GRD_RANGE": "9-12", "ADDRESS": "1841 SW Merlo Dr", "CITY": "Beaverton", "CAPACITY": 376, "PERM_CLRM": 330, "PORT_CLRM": 46, "SCHL_STATU": "OTHR", "SCHL_TYPE": "OTH", "NOTES": null, "ELEM_": 0, "MID_": 0, "INT_": 0, "HIGH_": 422, "WEBSITE": "http:\/\/www.beaverton.k12.or.us\/schools\/merlo-station-chs\/", "PHONE": "503 259 5575", "STRT_GRD": 9, "END_GRD": 12, "AREA": 0.000000, "ZIP": "97003" }, "geometry": { "type": "Point", "coordinates": [ -122.84817340187267, 45.506146699799288 ] } },
{ "type": "Feature", "properties": { "OBJECTID": 53, "NAME": "Early College HS", "FULLNAME": "Early College HS", "SCHL_CODE": 497, "GRD_RANGE": "10-12", "ADDRESS": "17705 NW Springville Rd", "CITY": "Portland", "CAPACITY": 1, "PERM_CLRM": 0, "PORT_CLRM": 0, "SCHL_STATU": "OTHR", "SCHL_TYPE": "OTH", "NOTES": null, "ELEM_": 0, "MID_": 0, "INT_": 0, "HIGH_": 497, "WEBSITE": "http:\/\/www.pcc.edu\/prepare\/head-start\/beaverton\/", "PHONE": "971 722 7473", "STRT_GRD": 10, "END_GRD": 12, "AREA": 0.000000, "ZIP": "97229" }, "geometry": { "type": "Point", "coordinates": [ -122.86051597727425, 45.565975513594168 ] } },
{ "type": "Feature", "properties": { "OBJECTID": 54, "NAME": "Rachel Carson", "FULLNAME": "Rachel Carson School of Environmental Science", "SCHL_CODE": 555, "GRD_RANGE": "6-8", "ADDRESS": "1600 NW 173rd Ave", "CITY": "Beaverton", "CAPACITY": 1, "PERM_CLRM": 0, "PORT_CLRM": 0, "SCHL_STATU": "OTHR", "SCHL_TYPE": "OTH", "NOTES": null, "ELEM_": 0, "MID_": 555, "INT_": 0, "HIGH_": 0, "WEBSITE": "http:\/\/rachelcarsonems.wordpress.com\/", "PHONE": "503 533 1890", "STRT_GRD": 6, "END_GRD": 8, "AREA": 0.000000, "ZIP": "97006" }, "geometry": { "type": "Point", "coordinates": [ 176.04697226303037, -90.0 ] } },
{ "type": "Feature", "properties": { "OBJECTID": 55, "NAME": "Summa Whitford", "FULLNAME": "Summa Whitford Program", "SCHL_CODE": 560, "GRD_RANGE": "6-8", "ADDRESS": "7935 SW Scholls Ferry Rd", "CITY": "Beaverton", "CAPACITY": 1, "PERM_CLRM": 0, "PORT_CLRM": 0, "SCHL_STATU": "OTHR", "SCHL_TYPE": "OTH", "NOTES": null, "ELEM_": 0, "MID_": 560, "INT_": 0, "HIGH_": 0, "WEBSITE": null, "PHONE": "503 672 3680", "STRT_GRD": 6, "END_GRD": 8, "AREA": 0.000000, "ZIP": "97005" }, "geometry": { "type": "Point", "coordinates": [ 176.04697226303037, -90.0 ] } },
{ "type": "Feature", "properties": { "OBJECTID": 56, "NAME": "Summa Stoller", "FULLNAME": "Summa Stoller Program", "SCHL_CODE": 565, "GRD_RANGE": "6-8", "ADDRESS": "14141 NW Laidlaw Rd", "CITY": "Beaverton", "CAPACITY": 1, "PERM_CLRM": 0, "PORT_CLRM": 0, "SCHL_STATU": "OTHR", "SCHL_TYPE": "OTH", "NOTES": null, "ELEM_": 0, "MID_": 565, "INT_": 0, "HIGH_": 0, "WEBSITE": null, "PHONE": "503 533 1910", "STRT_GRD": 6, "END_GRD": 8, "AREA": 0.000000, "ZIP": "97229" }, "geometry": { "type": "Point", "coordinates": [ 176.04697226303037, -90.0 ] } },
{ "type": "Feature", "properties": { "OBJECTID": 57, "NAME": "Summa Meadow Park", "FULLNAME": "Summa Meadow Park Program", "SCHL_CODE": 570, "GRD_RANGE": "6-8", "ADDRESS": "14100 SW Downing St", "CITY": "Beaverton", "CAPACITY": 1, "PERM_CLRM": 0, "PORT_CLRM": 0, "SCHL_STATU": "OTHR", "SCHL_TYPE": "OTH", "NOTES": null, "ELEM_": 0, "MID_": 570, "INT_": 0, "HIGH_": 0, "WEBSITE": null, "PHONE": "503 672 3660", "STRT_GRD": 6, "END_GRD": 8, "AREA": 0.000000, "ZIP": "97006" }, "geometry": { "type": "Point", "coordinates": [ 176.04697226303037, -90.0 ] } },
{ "type": "Feature", "properties": { "OBJECTID": 58, "NAME": "Cedar Park Summa", "FULLNAME": "Cedar Park Summa Program", "SCHL_CODE": 575, "GRD_RANGE": "6-8", "ADDRESS": "11100 SW Parkway St", "CITY": "Portland", "CAPACITY": 1, "PERM_CLRM": 0, "PORT_CLRM": 0, "SCHL_STATU": "OTHR", "SCHL_TYPE": "OTH", "NOTES": null, "ELEM_": 0, "MID_": 575, "INT_": 0, "HIGH_": 0, "WEBSITE": null, "PHONE": "503 672 3620", "STRT_GRD": 6, "END_GRD": 8, "AREA": 0.000000, "ZIP": "97225" }, "geometry": { "type": "Point", "coordinates": [ 176.04697226303037, -90.0 ] } },
{ "type": "Feature", "properties": { "OBJECTID": 59, "NAME": "Summa Highland Park", "FULLNAME": "Summa Highland Park Program", "SCHL_CODE": 580, "GRD_RANGE": "6-8", "ADDRESS": "7000 SW Wilson Ave", "CITY": "Beaverton", "CAPACITY": 1, "PERM_CLRM": 0, "PORT_CLRM": 0, "SCHL_STATU": "OTHR", "SCHL_TYPE": "OTH", "NOTES": null, "ELEM_": 0, "MID_": 580, "INT_": 0, "HIGH_": 0, "WEBSITE": null, "PHONE": "503 672 3640", "STRT_GRD": 6, "END_GRD": 8, "AREA": 0.000000, "ZIP": "97008" }, "geometry": { "type": "Point", "coordinates": [ 176.04697226303037, -90.0 ] } },
{ "type": "Feature", "properties": { "OBJECTID": 60, "NAME": "Sped OP", "FULLNAME": "Special Education Outside Placement", "SCHL_CODE": 812, "GRD_RANGE": "K-12", "ADDRESS": "16550 SW Merlo Road", "CITY": "Beaverton", "CAPACITY": 1, "PERM_CLRM": 0, "PORT_CLRM": 0, "SCHL_STATU": "SPED", "SCHL_TYPE": "OTH", "NOTES": null, "ELEM_": 812, "MID_": 812, "INT_": 0, "HIGH_": 812, "WEBSITE": null, "PHONE": null, "STRT_GRD": 0, "END_GRD": 12, "AREA": 0.000000, "ZIP": "97003" }, "geometry": { "type": "Point", "coordinates": [ -122.85004429932296, 45.504466587709921 ] } },
{ "type": "Feature", "properties": { "OBJECTID": 61, "NAME": "Sped OSD", "FULLNAME": "Oregon School for the Deaf", "SCHL_CODE": 814, "GRD_RANGE": "K-12", "ADDRESS": "16550 SW Merlo Road", "CITY": "Beaverton", "CAPACITY": 1, "PERM_CLRM": 0, "PORT_CLRM": 0, "SCHL_STATU": "SPED", "SCHL_TYPE": "OTH", "NOTES": null, "ELEM_": 814, "MID_": 814, "INT_": 0, "HIGH_": 814, "WEBSITE": null, "PHONE": null, "STRT_GRD": 0, "END_GRD": 12, "AREA": 0.000000, "ZIP": "97003" }, "geometry": { "type": "Point", "coordinates": [ -122.84825499018902, 45.504446018946439 ] } },
{ "type": "Feature", "properties": { "OBJECTID": 62, "NAME": "NonState Programs", "FULLNAME": "Non State Programs", "SCHL_CODE": 820, "GRD_RANGE": "9-12", "ADDRESS": "16550 SW Merlo Road", "CITY": "Beaverton", "CAPACITY": 1, "PERM_CLRM": 0, "PORT_CLRM": 0, "SCHL_STATU": "ALTN", "SCHL_TYPE": "OTH", "NOTES": null, "ELEM_": 820, "MID_": 820, "INT_": 0, "HIGH_": 820, "WEBSITE": null, "PHONE": null, "STRT_GRD": 9, "END_GRD": 12, "AREA": 0.000000, "ZIP": "97003" }, "geometry": { "type": "Point", "coordinates": [ -122.84895766687943, 45.503745689047655 ] } },
{ "type": "Feature", "properties": { "OBJECTID": 63, "NAME": "South Cooper Mtn HS", "FULLNAME": "South Cooper Mtn HS", "SCHL_CODE": 999, "GRD_RANGE": "9-12", "ADDRESS": "17651 SW Scholls Ferry Rd", "CITY": "Beaverton", "CAPACITY": 2176, "PERM_CLRM": 80, "PORT_CLRM": 0, "SCHL_STATU": "RGLR", "SCHL_TYPE": "HS", "NOTES": null, "ELEM_": 0, "MID_": 0, "INT_": 0, "HIGH_": 999, "WEBSITE": "http:\/\/www.beaverton.k12.or.us\/schools\/scmhs\/", "PHONE": "503 356 4319", "STRT_GRD": 9, "END_GRD": 12, "AREA": 0.000000, "ZIP": "97007" }, "geometry": { "type": "Point", "coordinates": [ -122.85847862150973, 45.427291156816295 ] } }
]
}
